City_ID,City,Lat,Lng,Max Temp,Humidity,Cloudiness,Wind Speed,Country,Date
0,vorgashor,67.5833,63.95,53.2,88,70,10.58,RU,Wed Sep 11 21:53:35 2024
1,port-aux-francais,-49.35,70.2167,38.5,86,100,41.14,TF,Wed Sep 11 21:53:35 2024
2,thompson,55.7435,-97.8558,55.56,62,20,2.3,CA,Wed Sep 11 21:52:43 2024
3,ilulissat,69.2167,-51.1,37.42,70,87,1.14,GL,Wed Sep 11 21:51:59 2024
4,merizo village,13.2658,144.6691,83.98,90,100,25.1,GU,Wed Sep 11 21:53:36 2024
5,grytviken,-54.2811,-36.5092,32.52,97,100,5.55,GS,Wed Sep 11 21:53:36 2024
6,tralee,52.2704,-9.7026,51.03,82,100,10.2,IE,Wed Sep 11 21:53:36 2024
7,vilyuysk,63.7553,121.6247,50.4,48,100,11.34,RU,Wed Sep 11 21:53:36 2024
8,pisco,-13.7,-76.2167,62.65,77,0,9.22,PE,Wed Sep 11 21:53:36 2024
9,ebon,4.582,168.6964,84.07,66,4,12.75,MH,Wed Sep 11 21:53:36 2024
10,punta arenas,-53.15,-70.9167,42.91,70,40,13.8,CL,Wed Sep 11 21:53:36 2024
11,bredasdorp,-34.5322,20.0403,58.1,91,100,3.91,ZA,Wed Sep 11 21:53:36 2024
12,brookings,44.3114,-96.7984,73.18,67,0,11.01,US,Wed Sep 11 21:53:37 2024
13,yellowknife,62.456,-114.3525,54.41,80,100,10.36,CA,Wed Sep 11 21:53:37 2024
14,raholt,60.2667,11.1833,46.47,88,75,9.22,NO,Wed Sep 11 21:53:37 2024
15,gereida,11.2811,25.1414,77.61,76,98,6.64,SD,Wed Sep 11 21:53:37 2024
16,boa vista,2.8197,-60.6733,87.78,58,20,4.61,BR,Wed Sep 11 21:53:37 2024
17,margaret river,-33.95,115.0667,65.88,44,69,3.47,AU,Wed Sep 11 21:53:37 2024
18,bridgewater,44.3835,-64.5155,52.63,90,2,4.76,CA,Wed Sep 11 21:46:07 2024
19,kodiak,57.79,-152.4072,51.31,100,100,10.36,US,Wed Sep 11 21:53:37 2024
20,bethel,41.3712,-73.414,62.94,84,0,4.61,US,Wed Sep 11 21:53:37 2024
21,longyearbyen,78.2186,15.6401,33.64,69,75,25.32,SJ,Wed Sep 11 21:53:38 2024
22,edinburgh of the seven seas,-37.0676,-12.3116,52.88,75,93,6.51,SH,Wed Sep 11 21:53:38 2024
23,vila velha,-20.3297,-40.2925,75.15,85,20,10.0,BR,Wed Sep 11 21:51:02 2024
24,remire-montjoly,4.9167,-52.2667,80.64,83,0,3.44,GF,Wed Sep 11 21:53:38 2024
25,gewane,10.1664,40.6453,80.78,56,35,1.36,ET,Wed Sep 11 21:53:38 2024
26,puerto natales,-51.7236,-72.4875,40.15,83,82,7.14,CL,Wed Sep 11 21:53:38 2024
27,hermanus,-34.4187,19.2345,55.8,91,100,10.31,ZA,Wed Sep 11 21:53:38 2024
28,mount gambier,-37.8333,140.7667,53.6,64,89,7.14,AU,Wed Sep 11 21:53:38 2024
29,labrador city,52.9463,-66.9114,41.18,68,0,11.01,CA,Wed Sep 11 21:53:38 2024
30,kapuskasing,49.4169,-82.4331,66.29,88,100,4.61,CA,Wed Sep 11 21:53:38 2024
31,andergrove,-21.0833,149.1833,73.69,63,0,10.98,AU,Wed Sep 11 21:53:39 2024
32,broome,42.2506,-75.833,63.48,76,2,2.77,US,Wed Sep 11 21:53:39 2024
33,adamstown,-25.066,-130.1015,67.14,66,21,16.75,PN,Wed Sep 11 21:53:39 2024
34,talnakh,69.4865,88.3972,43.34,100,100,4.29,RU,Wed Sep 11 21:53:39 2024
35,khadan khak,30.7477,67.7085,67.87,19,0,7.36,PK,Wed Sep 11 21:53:39 2024
36,san patricio,28.017,-97.5169,84.15,69,0,5.68,US,Wed Sep 11 21:53:39 2024
37,isafjordur,66.0755,-23.124,36.61,71,16,6.02,IS,Wed Sep 11 21:53:39 2024
38,wailua homesteads,22.0669,-159.378,83.19,71,0,10.36,US,Wed Sep 11 21:53:39 2024
39,acajutla,13.5928,-89.8275,81.79,80,41,5.19,SV,Wed Sep 11 21:53:39 2024
40,la passe,45.5549,-0.8967,58.08,68,100,8.55,FR,Wed Sep 11 21:53:40 2024
41,avarua,-21.2078,-159.775,78.85,73,40,13.8,CK,Wed Sep 11 21:53:40 2024
42,brak,27.5496,14.2714,84.81,37,0,17.07,LY,Wed Sep 11 21:53:40 2024
43,albany,42.6001,-73.9662,60.8,66,17,2.95,US,Wed Sep 11 21:53:40 2024
44,ribeira grande,38.5167,-28.7,69.78,83,4,4.0,PT,Wed Sep 11 21:53:40 2024
45,sao miguel do araguaia,-13.275,-50.1628,82.51,27,17,4.23,BR,Wed Sep 11 21:53:40 2024
46,borkum,53.5809,6.6915,55.35,64,52,13.22,DE,Wed Sep 11 21:53:40 2024
47,cidreira,-30.1811,-50.2056,64.15,92,100,10.54,BR,Wed Sep 11 21:53:40 2024
48,sisimiut,66.9395,-53.6735,39.07,77,100,2.55,GL,Wed Sep 11 21:53:40 2024
49,west island,-12.1568,96.8225,80.58,83,100,14.97,CC,Wed Sep 11 21:53:41 2024
50,cheremushki,52.8356,91.3944,44.91,90,100,3.47,RU,Wed Sep 11 21:53:41 2024
51,waitangi,-43.9535,-176.5597,51.82,80,63,8.01,NZ,Wed Sep 11 21:53:41 2024
52,mount pearl,47.5166,-52.7813,58.32,69,75,11.5,CA,Wed Sep 11 21:53:41 2024
53,iqaluit,63.7506,-68.5145,38.93,55,20,5.75,CA,Wed Sep 11 21:53:41 2024
54,luderitz,-26.6481,15.1594,51.69,88,0,4.47,NA,Wed Sep 11 21:53:41 2024
55,atafu village,-8.5421,-172.5159,78.82,90,100,11.5,TK,Wed Sep 11 21:53:41 2024
56,enewetak,11.3474,162.3373,84.54,77,55,15.82,MH,Wed Sep 11 21:53:41 2024
57,nguigmi,14.2495,13.1092,84.33,61,7,8.88,NE,Wed Sep 11 21:53:41 2024
58,san matias,-16.3667,-58.4,84.69,24,0,6.11,BO,Wed Sep 11 21:53:41 2024
59,altai,46.3722,96.2583,49.77,48,100,4.38,MN,Wed Sep 11 21:53:42 2024
60,paoua,7.2427,16.4406,69.58,95,100,1.68,CF,Wed Sep 11 21:53:42 2024
61,coyhaique,-45.5752,-72.0662,38.57,98,100,7.81,CL,Wed Sep 11 21:53:42 2024
62,waingapu,-9.6567,120.2641,86.02,52,13,13.53,ID,Wed Sep 11 21:53:42 2024
63,cabo san lucas,22.8909,-109.9124,89.91,58,75,6.91,MX,Wed Sep 11 21:53:30 2024
64,gadzhiyevo,69.2551,33.3362,56.07,81,25,11.95,RU,Wed Sep 11 21:53:42 2024
65,kununurra,-15.7667,128.7333,91.38,49,55,10.36,AU,Wed Sep 11 21:53:42 2024
66,hawaiian paradise park,19.5933,-154.9731,80.87,83,100,8.05,US,Wed Sep 11 21:53:42 2024
67,katabu,-4.9333,122.5167,86.09,50,98,6.8,ID,Wed Sep 11 21:53:43 2024
68,usiacuri,10.75,-74.9833,79.32,90,100,3.0,CO,Wed Sep 11 21:53:43 2024
69,ushuaia,-54.8,-68.3,44.26,57,75,5.75,AR,Wed Sep 11 21:49:12 2024
70,cururupu,-1.8283,-44.8683,74.98,86,12,2.82,BR,Wed Sep 11 21:53:43 2024
71,otumba,19.7,-98.75,60.13,87,77,6.6,MX,Wed Sep 11 21:53:43 2024
72,mudanjiang,44.5833,129.6,66.27,63,57,6.85,CN,Wed Sep 11 21:53:43 2024
73,palikir - national government center,6.9248,158.1611,79.65,94,100,6.91,FM,Wed Sep 11 21:53:43 2024
74,namdrik,5.5994,168.1028,84.6,70,23,12.95,MH,Wed Sep 11 21:53:43 2024
75,kamaishi,39.2667,141.8833,80.53,73,44,3.94,JP,Wed Sep 11 21:53:43 2024
76,uturoa,-16.7333,-151.4333,78.75,76,4,9.31,PF,Wed Sep 11 21:53:43 2024
77,petropavlovsk-kamchatsky,53.0452,158.6483,59.59,48,75,4.47,RU,Wed Sep 11 21:53:44 2024
78,lompoc,34.6391,-120.4579,64.69,88,100,16.11,US,Wed Sep 11 21:53:44 2024
79,olonkinbyen,70.9221,-8.7187,34.45,97,100,37.31,SJ,Wed Sep 11 21:53:44 2024
80,barra de santo antonio,-9.4047,-35.5072,75.06,75,7,10.76,BR,Wed Sep 11 21:53:44 2024
81,bugana,7.9992,7.5836,73.53,97,36,2.57,NG,Wed Sep 11 21:53:44 2024
82,matipo,-20.2839,-42.3411,64.76,63,0,5.12,BR,Wed Sep 11 21:53:44 2024
83,saryozek,44.3583,77.9753,53.69,52,3,4.38,KZ,Wed Sep 11 21:53:44 2024
84,cannonvale,-20.2833,148.7,74.59,63,2,14.38,AU,Wed Sep 11 21:53:44 2024
85,seven pagodas,12.6264,80.1722,83.66,64,91,9.1,IN,Wed Sep 11 21:53:44 2024
86,villamontes,-21.25,-63.5,65.08,53,79,6.51,BO,Wed Sep 11 21:53:44 2024
87,grand island,40.925,-98.342,75.02,48,0,8.05,US,Wed Sep 11 21:53:45 2024
88,puerto ayora,-0.7393,-90.3518,70.56,96,83,5.99,EC,Wed Sep 11 21:53:45 2024
89,tanumah,27.1,44.1333,83.66,18,33,5.55,SA,Wed Sep 11 21:53:45 2024
90,udachny,66.4167,112.4,40.96,93,100,22.39,RU,Wed Sep 11 21:53:45 2024
91,misratah,32.3754,15.0925,78.15,65,0,3.0,LY,Wed Sep 11 21:53:45 2024
92,peniche,39.3558,-9.3811,64.2,92,92,25.66,PT,Wed Sep 11 21:53:45 2024
93,jamestown,42.097,-79.2353,65.84,91,0,6.91,US,Wed Sep 11 21:48:55 2024
94,hammerfest,70.6634,23.6821,59.45,67,69,17.27,NO,Wed Sep 11 21:53:45 2024
95,asmara,15.3333,38.9333,60.87,70,49,2.26,ER,Wed Sep 11 21:53:46 2024
96,arquitecto tomas romero pereira,-26.4833,-55.25,75.16,28,17,5.32,PY,Wed Sep 11 21:53:46 2024
97,port lincoln,-34.7333,135.8667,57.47,58,0,9.55,AU,Wed Sep 11 21:53:46 2024
98,port mathurin,-19.6833,63.4167,71.85,73,39,15.57,MU,Wed Sep 11 21:53:46 2024
99,st. john's,47.5649,-52.7093,59.14,67,75,11.5,CA,Wed Sep 11 21:53:46 2024
100,dudinka,69.4058,86.1778,50.27,91,0,12.33,RU,Wed Sep 11 21:53:46 2024
101,el bauga,18.262,33.9081,92.01,19,60,6.71,SD,Wed Sep 11 21:53:46 2024
102,college,64.8569,-147.8028,57.07,66,75,9.22,US,Wed Sep 11 21:53:46 2024
103,rio branco do sul,-25.19,-49.3142,71.92,37,0,0.22,BR,Wed Sep 11 21:53:46 2024
104,evanston,42.0411,-87.6901,77.09,57,0,3.44,US,Wed Sep 11 21:53:47 2024
105,frontera,26.9333,-101.45,83.89,54,1,1.99,MX,Wed Sep 11 21:53:47 2024
106,flying fish cove,-10.4217,105.6791,78.48,88,100,13.8,CX,Wed Sep 11 21:53:47 2024
107,kuta,-8.7233,115.1723,84.15,74,40,11.5,ID,Wed Sep 11 21:49:00 2024
108,khandyga,62.6667,135.6,45.79,96,100,3.44,RU,Wed Sep 11 21:53:47 2024
109,nantucket,41.2835,-70.0995,61.14,94,0,0.0,US,Wed Sep 11 21:53:47 2024
110,kerikeri,-35.2268,173.9474,61.68,50,2,6.38,NZ,Wed Sep 11 21:53:47 2024
111,ola,59.5833,151.2833,49.01,87,100,11.59,RU,Wed Sep 11 21:53:48 2024
112,rongelap,11.1635,166.8941,83.61,75,58,15.35,MH,Wed Sep 11 21:53:48 2024
113,whitehorse,60.7161,-135.0538,59.77,48,20,8.05,CA,Wed Sep 11 21:53:48 2024
114,pinheiro machado,-31.5783,-53.3811,53.06,100,100,14.27,BR,Wed Sep 11 21:53:27 2024
115,vadso,70.0744,29.7487,57.36,82,98,9.22,NO,Wed Sep 11 21:53:48 2024
116,kashgar,39.4547,75.9797,61.81,51,0,4.47,CN,Wed Sep 11 21:53:48 2024
117,bilibino,68.0546,166.4372,50.18,52,12,2.42,RU,Wed Sep 11 21:53:48 2024
118,shaowu,27.3409,117.4831,87.06,70,100,0.76,CN,Wed Sep 11 21:53:48 2024
119,akureyri,65.6835,-18.0878,30.13,93,1,2.3,IS,Wed Sep 11 21:53:48 2024
120,blackmans bay,-43.0167,147.3167,57.72,56,78,3.0,AU,Wed Sep 11 21:53:49 2024
121,buenaventura,3.8801,-77.0312,76.06,96,100,2.62,CO,Wed Sep 11 21:53:49 2024
122,calama,-22.4667,-68.9333,57.69,15,0,6.91,CL,Wed Sep 11 21:53:49 2024
123,hamilton,39.1834,-84.5333,72.43,56,0,3.44,US,Wed Sep 11 21:50:52 2024
124,mumbwa,-14.9783,27.0619,67.17,49,0,9.1,ZM,Wed Sep 11 21:53:49 2024
125,hithadhoo,-0.6,73.0833,83.75,69,11,7.54,MV,Wed Sep 11 21:53:49 2024
126,pandan,14.0453,124.1694,86.11,72,100,10.94,PH,Wed Sep 11 21:53:49 2024
127,carnarvon,-24.8667,113.6333,76.33,54,0,13.56,AU,Wed Sep 11 21:53:49 2024
128,tiksi,71.6872,128.8694,39.47,82,100,17.78,RU,Wed Sep 11 21:53:49 2024
129,tagab,34.855,69.6492,65.79,7,0,5.77,AF,Wed Sep 11 21:53:50 2024
130,kochenevo,55.0218,82.202,38.59,78,100,11.32,RU,Wed Sep 11 21:53:50 2024
131,sanctuary point,-35.1114,150.629,61.12,67,87,18.48,AU,Wed Sep 11 21:53:50 2024
132,ko lanta,7.5336,99.0865,81.05,80,72,10.38,TH,Wed Sep 11 21:53:50 2024
133,thinadhoo,0.5333,72.9333,83.14,70,14,4.85,MV,Wed Sep 11 21:53:50 2024
134,utrik,11.2278,169.8474,83.32,77,14,11.14,MH,Wed Sep 11 21:53:50 2024
135,jalai nur,49.45,117.7,57.09,39,100,16.02,CN,Wed Sep 11 21:53:50 2024
136,phra pradaeng,13.6585,100.5336,84.15,73,97,4.76,TH,Wed Sep 11 21:53:50 2024
137,east london,-33.0153,27.9116,65.03,89,100,24.38,ZA,Wed Sep 11 21:53:50 2024
138,kemalpasa,38.4262,27.4173,66.78,85,0,3.02,TR,Wed Sep 11 21:53:50 2024
139,severo-yeniseyskiy,60.3725,93.0408,36.43,95,100,4.03,RU,Wed Sep 11 21:53:51 2024
140,carutapera,-1.195,-46.02,78.12,79,77,8.41,BR,Wed Sep 11 21:53:51 2024
141,invercargill,-46.4,168.35,47.01,89,100,7.0,NZ,Wed Sep 11 21:53:51 2024
142,caraballeda,10.6112,-66.8522,78.87,78,40,2.3,VE,Wed Sep 11 21:53:51 2024
143,manaure,11.7751,-72.4445,86.49,73,15,15.61,CO,Wed Sep 11 21:53:51 2024
144,raciborz,50.0919,18.2193,57.72,91,100,5.06,PL,Wed Sep 11 21:53:51 2024
145,wuchuan,21.4571,110.7659,85.77,71,98,7.63,CN,Wed Sep 11 21:53:51 2024
146,cabedelo,-6.9811,-34.8339,72.27,80,52,15.59,BR,Wed Sep 11 21:53:51 2024
147,kikvidze,50.7416,43.0518,64.27,39,74,11.16,RU,Wed Sep 11 21:53:52 2024
148,ulladulla,-35.35,150.4667,58.71,76,89,16.96,AU,Wed Sep 11 21:53:52 2024
149,ivankiv,50.9386,29.8943,65.75,74,100,7.99,UA,Wed Sep 11 21:53:52 2024
150,bubaque,11.2833,-15.8333,80.62,85,100,15.77,GW,Wed Sep 11 21:53:52 2024
151,kavieng,-2.5744,150.7967,80.38,84,100,6.11,PG,Wed Sep 11 21:53:52 2024
152,konosha,60.9736,40.257,57.15,78,81,6.71,RU,Wed Sep 11 21:53:52 2024
153,port elizabeth,-33.918,25.5701,62.89,99,100,20.71,ZA,Wed Sep 11 21:53:52 2024
154,lihue,21.9789,-159.3672,83.79,67,0,10.36,US,Wed Sep 11 21:53:52 2024
155,lijiang,26.8688,100.2207,65.39,77,2,3.06,CN,Wed Sep 11 21:53:52 2024
156,holualoa,19.6228,-155.9522,82.24,78,0,13.8,US,Wed Sep 11 21:53:53 2024
157,iskateley,67.6803,53.1512,55.98,92,39,9.08,RU,Wed Sep 11 21:53:53 2024
158,jumla,29.2747,82.1838,61.7,78,100,2.37,NP,Wed Sep 11 21:49:42 2024
159,al bawiti,28.3492,28.8659,80.29,69,0,9.73,EG,Wed Sep 11 21:53:53 2024
160,ariquemes,-9.9133,-63.0408,83.91,37,34,2.3,BR,Wed Sep 11 21:53:53 2024
161,mahdia,35.5047,11.0622,74.88,62,0,5.75,TN,Wed Sep 11 21:53:53 2024
162,mukwonago,42.8667,-88.3334,69.1,75,0,0.0,US,Wed Sep 11 21:53:53 2024
163,stanley,54.868,-1.6985,42.28,87,0,6.91,GB,Wed Sep 11 21:53:53 2024
164,codrington,-38.2667,141.9667,53.19,69,100,10.13,AU,Wed Sep 11 21:53:53 2024
165,santa ana,33.7456,-117.8678,72.91,71,20,11.5,US,Wed Sep 11 21:51:29 2024
166,vorkuta,67.5,64.0,53.26,88,76,10.78,RU,Wed Sep 11 21:53:54 2024
167,morondava,-20.2833,44.2833,72.36,65,6,7.61,MG,Wed Sep 11 21:53:54 2024
168,nuuk,64.1835,-51.7216,47.01,76,100,2.3,GL,Wed Sep 11 21:53:54 2024
169,fair plain,42.087,-86.4559,67.98,70,0,0.0,US,Wed Sep 11 21:53:54 2024
170,ketchikan,55.3422,-131.6461,64.78,59,0,9.22,US,Wed Sep 11 21:53:54 2024
171,bardai,11.65,7.2333,71.46,91,60,6.85,NG,Wed Sep 11 21:53:54 2024
172,darnah,32.767,22.6367,78.31,74,1,6.53,LY,Wed Sep 11 21:53:54 2024
173,isoka,-10.1606,32.6335,60.04,59,36,0.78,ZM,Wed Sep 11 21:53:54 2024
174,alofi,-19.0595,-169.9187,80.49,69,75,18.41,NU,Wed Sep 11 21:53:55 2024
175,el calafate,-50.3408,-72.2768,39.36,80,6,8.5,AR,Wed Sep 11 21:51:33 2024
176,papatowai,-46.5619,169.4708,41.31,95,100,8.41,NZ,Wed Sep 11 21:53:55 2024
177,santa terezinha,-29.9002,-50.0904,64.26,96,100,12.26,BR,Wed Sep 11 21:53:55 2024
178,bel ombre,-4.6167,55.4167,80.44,83,40,16.11,SC,Wed Sep 11 21:53:55 2024
179,suntar,62.1444,117.6319,42.37,86,100,9.86,RU,Wed Sep 11 21:53:55 2024
180,kailua-kona,19.6406,-155.9956,85.96,77,0,13.8,US,Wed Sep 11 21:53:55 2024
181,kingston,17.997,-76.7936,85.15,74,75,6.91,JM,Wed Sep 11 21:49:53 2024
182,tuy hoa,13.0833,109.3,88.88,61,100,9.89,VN,Wed Sep 11 21:53:55 2024
183,porto novo,6.4965,2.6036,78.62,90,100,7.45,BJ,Wed Sep 11 21:53:56 2024
184,masterton,-40.9597,175.6575,56.79,57,90,11.01,NZ,Wed Sep 11 21:53:56 2024
185,craig,40.5153,-107.5464,65.82,32,41,9.04,US,Wed Sep 11 21:53:56 2024
186,puerto deseado,-47.7503,-65.8938,48.81,51,9,11.45,AR,Wed Sep 11 21:53:56 2024
187,port moresby,-9.4431,147.1797,87.22,58,40,11.5,PG,Wed Sep 11 21:53:56 2024
188,fale old settlement,-9.3852,-171.2468,81.01,85,100,18.59,TK,Wed Sep 11 21:53:56 2024
189,ulsteinvik,62.3432,5.8487,52.75,86,100,5.99,NO,Wed Sep 11 21:53:56 2024
190,robertsport,6.7533,-11.3686,77.72,88,100,10.45,LR,Wed Sep 11 21:53:56 2024
191,lospalos,-8.5186,127.0025,81.48,56,20,13.09,TL,Wed Sep 11 21:53:57 2024
192,saipan,15.1355,145.701,88.5,74,20,18.41,MP,Wed Sep 11 21:53:57 2024
193,mount airy,36.4993,-80.6073,65.84,77,0,4.0,US,Wed Sep 11 21:53:57 2024
194,lindley,-27.8791,27.9135,56.91,69,0,7.54,ZA,Wed Sep 11 21:53:57 2024
195,illizi,26.4833,8.4667,93.49,32,89,10.96,DZ,Wed Sep 11 21:53:57 2024
196,badiyah,22.45,58.8,80.02,64,2,6.08,OM,Wed Sep 11 21:53:57 2024
197,tual,-5.6667,132.75,79.34,81,100,21.94,ID,Wed Sep 11 21:53:57 2024
198,fortuna,40.5982,-124.1573,63.93,90,75,8.05,US,Wed Sep 11 21:53:57 2024
199,timimoun,29.2639,0.231,82.78,30,0,20.71,DZ,Wed Sep 11 21:53:58 2024
200,hadibu,12.65,54.0333,76.98,86,84,16.6,YE,Wed Sep 11 21:53:58 2024
201,klyuchi,52.2667,79.1667,46.44,67,25,13.89,RU,Wed Sep 11 21:53:58 2024
202,taro,-8.3862,115.28,82.27,41,57,6.33,ID,Wed Sep 11 21:53:58 2024
203,howrah,22.5892,88.3103,86.0,89,75,5.75,IN,Wed Sep 11 21:53:58 2024
204,castillos,-34.1667,-53.8333,47.79,90,100,5.84,UY,Wed Sep 11 21:53:58 2024
205,taulaga,-11.0553,-171.0883,81.9,82,25,19.8,AS,Wed Sep 11 21:49:33 2024
206,prince george,53.9166,-122.753,65.64,45,75,5.75,CA,Wed Sep 11 21:53:58 2024
207,coari,-4.085,-63.1414,80.85,47,5,2.57,BR,Wed Sep 11 21:53:58 2024
208,ballina,-28.8667,153.5667,70.39,75,78,10.25,AU,Wed Sep 11 21:53:59 2024
209,yeniseysk,58.4497,92.1703,43.18,73,100,3.31,RU,Wed Sep 11 21:53:59 2024
210,chifeng,42.2683,118.9636,69.8,43,90,1.66,CN,Wed Sep 11 21:53:59 2024
211,nova sintra,14.8667,-24.7167,80.64,84,100,9.06,CV,Wed Sep 11 21:53:59 2024
212,nouadhibou,20.931,-17.0347,73.38,68,10,16.11,MR,Wed Sep 11 21:53:59 2024
213,zhezqazghan,47.7833,67.7667,52.38,76,0,15.66,KZ,Wed Sep 11 21:53:59 2024
214,wajir,1.7471,40.0573,74.3,53,9,14.54,KE,Wed Sep 11 21:53:59 2024
215,poso,-1.3959,120.7524,87.67,48,79,3.2,ID,Wed Sep 11 21:53:59 2024
216,paulden,34.8856,-112.4682,84.38,19,0,11.01,US,Wed Sep 11 21:54:00 2024
217,saint-joseph,-21.3667,55.6167,70.18,81,34,2.37,RE,Wed Sep 11 21:54:00 2024
218,coracao de jesus,-16.6853,-44.365,70.11,47,100,8.77,BR,Wed Sep 11 21:54:00 2024
219,kavaratti,10.5669,72.642,80.96,83,49,12.41,IN,Wed Sep 11 21:54:00 2024
220,djambala,-2.5447,14.7533,70.0,88,100,1.86,CG,Wed Sep 11 21:54:00 2024
221,polyarnyy,69.1989,33.4478,55.92,80,11,13.0,RU,Wed Sep 11 21:54:00 2024
222,mahina,-17.5065,-149.489,83.97,65,20,13.8,PF,Wed Sep 11 21:54:00 2024
223,naze,28.3667,129.4833,85.12,76,15,14.2,JP,Wed Sep 11 21:54:00 2024
224,lata,40.1629,-8.3327,54.23,98,100,3.49,PT,Wed Sep 11 21:54:00 2024
225,olinala,17.8333,-98.85,68.92,94,100,4.79,MX,Wed Sep 11 21:54:01 2024
226,aykhal,66.0,111.5,38.97,95,100,22.32,RU,Wed Sep 11 21:54:01 2024
227,daru,-9.0763,143.2092,79.95,74,33,17.4,PG,Wed Sep 11 21:54:01 2024
228,thamaga,-24.6701,25.5397,62.28,71,8,7.18,BW,Wed Sep 11 21:54:01 2024
229,tofol,5.3248,163.0078,84.09,76,100,9.35,FM,Wed Sep 11 21:54:01 2024
230,galliano,29.4422,-90.2992,76.17,89,100,45.05,US,Wed Sep 11 21:54:01 2024
231,karratha,-20.7377,116.8463,85.24,33,31,25.32,AU,Wed Sep 11 21:54:01 2024
232,davyd-haradok,52.0566,27.2161,61.52,78,95,5.35,BY,Wed Sep 11 21:54:01 2024
233,island harbour,50.724,-1.2758,45.99,62,0,11.77,GB,Wed Sep 11 21:54:02 2024
234,nandu,22.8525,110.8233,85.64,75,69,1.48,CN,Wed Sep 11 21:54:02 2024
235,mount isa,-20.7333,139.5,89.37,17,0,13.8,AU,Wed Sep 11 21:54:02 2024
236,taksimo,56.3444,114.8794,45.01,53,91,6.51,RU,Wed Sep 11 21:54:02 2024
237,zhigalovo,54.8097,105.1578,40.77,91,100,3.62,RU,Wed Sep 11 21:54:02 2024
238,strabane,54.8237,-7.4692,41.22,91,4,3.42,GB,Wed Sep 11 21:54:02 2024
239,tazovsky,67.4667,78.7,51.15,87,0,13.2,RU,Wed Sep 11 21:54:02 2024
240,cuyo,10.8525,121.0086,82.45,82,100,18.39,PH,Wed Sep 11 21:54:02 2024
241,parauapebas,-6.0675,-49.9022,80.04,43,0,1.19,BR,Wed Sep 11 21:54:02 2024
242,anadyr,64.75,177.4833,48.7,76,40,5.99,RU,Wed Sep 11 21:54:02 2024
243,america dourada,-11.4553,-41.4361,64.65,77,0,9.4,BR,Wed Sep 11 21:54:03 2024
244,qingquan,30.4511,115.2559,77.52,89,93,1.99,CN,Wed Sep 11 21:54:03 2024
245,faqirwali,29.4663,73.034,89.04,54,6,3.8,PK,Wed Sep 11 21:54:03 2024
246,chaohu,31.6,117.8667,79.61,95,100,2.3,CN,Wed Sep 11 21:54:03 2024
247,ust-nera,64.5667,143.2,43.45,96,100,4.79,RU,Wed Sep 11 21:54:03 2024
248,yangambi,0.8102,24.4336,69.84,100,100,1.92,CD,Wed Sep 11 21:54:03 2024
249,haiku-pauwela,20.9219,-156.3051,85.23,76,25,23.0,US,Wed Sep 11 21:54:03 2024
250,general zuazua,25.9,-100.1167,82.76,59,0,5.55,MX,Wed Sep 11 21:54:03 2024
251,hilo,19.7297,-155.09,81.09,94,100,8.05,US,Wed Sep 11 21:54:03 2024
252,nova vicosa,-17.8919,-39.3719,72.46,86,4,9.1,BR,Wed Sep 11 21:54:03 2024
253,badger,64.8,-147.5333,56.98,64,40,9.22,US,Wed Sep 11 21:54:04 2024
254,korhogo,9.45,-5.6333,70.92,98,100,5.75,CI,Wed Sep 11 21:54:04 2024
255,san borja,-14.8167,-66.85,80.24,36,9,1.81,BO,Wed Sep 11 21:49:05 2024
256,vredendal,-31.6683,18.5012,51.93,80,53,5.19,ZA,Wed Sep 11 21:54:04 2024
257,raja,8.4596,25.678,70.5,95,66,2.26,SS,Wed Sep 11 21:54:04 2024
258,hasaki,35.7333,140.8333,83.16,79,19,12.75,JP,Wed Sep 11 21:54:04 2024
259,nuku'alofa,-21.1333,-175.2,71.94,94,100,13.8,TO,Wed Sep 11 21:53:38 2024
260,chebba,35.2372,11.115,76.53,64,0,2.19,TN,Wed Sep 11 21:54:04 2024
261,okhotsk,59.3833,143.3,53.4,73,100,18.9,RU,Wed Sep 11 21:54:04 2024
262,prado,-17.3411,-39.2208,72.81,86,51,9.91,BR,Wed Sep 11 21:50:07 2024
263,shahrud,36.4182,54.9763,70.18,29,0,2.93,IR,Wed Sep 11 21:54:05 2024
264,kanggye,40.9695,126.5852,79.77,65,15,2.86,KP,Wed Sep 11 21:54:05 2024
265,lebu,-37.6167,-73.65,45.86,79,48,16.84,CL,Wed Sep 11 21:54:05 2024
266,vilyuchinsk,52.9306,158.4028,61.07,60,41,24.61,RU,Wed Sep 11 21:54:05 2024
267,sampit,-2.5333,112.95,85.91,55,11,6.42,ID,Wed Sep 11 21:54:05 2024
268,kone,-21.0595,164.8658,83.55,42,23,5.26,NC,Wed Sep 11 21:54:05 2024
269,constantia,44.1833,28.65,61.7,89,24,10.92,RO,Wed Sep 11 21:54:05 2024
270,praia da vitoria,38.7333,-27.0667,70.75,88,40,9.24,PT,Wed Sep 11 21:54:06 2024
271,newman,37.3138,-121.0208,82.04,39,53,8.99,US,Wed Sep 11 21:54:06 2024
272,markala,13.7021,-6.0659,76.95,74,100,3.96,ML,Wed Sep 11 21:54:06 2024
273,fada,7.25,4.0667,71.83,99,100,1.83,NG,Wed Sep 11 21:54:06 2024
274,levuka,50.1834,-105.4011,60.53,63,75,23.02,CA,Wed Sep 11 21:54:06 2024
275,sao joao da barra,-21.6403,-41.0511,73.71,83,0,26.93,BR,Wed Sep 11 21:54:06 2024
276,svetlyy,54.675,20.1347,58.12,80,100,5.75,RU,Wed Sep 11 21:54:06 2024
277,sao vicente,-23.9631,-46.3919,71.98,26,100,3.83,BR,Wed Sep 11 21:51:07 2024
278,chardara,41.2547,67.9692,63.84,39,34,7.63,KZ,Wed Sep 11 21:54:06 2024
279,hollidaysburg,40.4273,-78.3889,66.09,77,0,3.44,US,Wed Sep 11 21:54:06 2024
280,laojunmiao,39.8333,97.7333,51.35,92,100,14.45,CN,Wed Sep 11 21:54:06 2024
281,hacienda huancane,-15.8222,-70.8856,43.43,30,66,3.58,PE,Wed Sep 11 21:54:07 2024
282,charters towers,-20.1,146.2667,82.35,28,0,9.13,AU,Wed Sep 11 21:50:31 2024
283,lakhnadon,22.6,79.6,73.87,90,100,8.61,IN,Wed Sep 11 21:54:07 2024
284,tura,25.5198,90.2201,82.94,77,33,0.34,IN,Wed Sep 11 21:54:07 2024
285,saldanha,-33.0117,17.9442,55.45,77,100,10.65,ZA,Wed Sep 11 21:54:07 2024
286,kilindoni,-7.9139,39.6668,76.3,78,47,8.99,TZ,Wed Sep 11 21:54:07 2024
287,touros,-5.1989,-35.4608,75.72,81,53,14.52,BR,Wed Sep 11 21:54:07 2024
288,ambon,-3.6954,128.1814,84.34,74,40,8.05,ID,Wed Sep 11 21:54:08 2024
289,galesong,-5.3166,119.3661,84.65,53,12,1.52,ID,Wed Sep 11 21:54:08 2024
290,katsuura,35.1333,140.3,82.58,81,29,10.85,JP,Wed Sep 11 21:54:08 2024
291,aasiaat,68.7098,-52.8699,28.31,81,14,7.31,GL,Wed Sep 11 21:54:08 2024
292,as sulayyil,20.4607,45.5779,84.9,13,11,3.36,SA,Wed Sep 11 21:54:08 2024
293,bac lieu,9.285,105.7244,85.05,73,98,15.01,VN,Wed Sep 11 21:54:08 2024
294,antofagasta,-23.65,-70.4,58.28,84,61,6.24,CL,Wed Sep 11 21:51:48 2024
295,keflavik,64.0049,-22.5624,43.23,81,40,5.75,IS,Wed Sep 11 21:54:08 2024
296,mariental,-24.6333,17.9667,55.06,20,0,2.08,NA,Wed Sep 11 21:54:08 2024
297,vila franca do campo,37.7167,-25.4333,70.21,99,12,7.09,PT,Wed Sep 11 21:54:09 2024
298,fortaleza,-3.7227,-38.5247,82.08,86,20,16.11,BR,Wed Sep 11 21:51:23 2024
299,aral,40.5156,81.2636,65.07,39,1,12.39,CN,Wed Sep 11 21:54:09 2024
300,coahuayana de hidalgo,18.7,-103.6583,78.62,91,100,4.47,MX,Wed Sep 11 21:54:09 2024
301,betio village,1.358,172.9211,89.64,67,25,10.76,KI,Wed Sep 11 21:54:09 2024
302,guerrero negro,27.9769,-114.0611,69.33,82,0,18.68,MX,Wed Sep 11 21:54:09 2024
303,pacific grove,36.6177,-121.9166,66.36,86,75,11.99,US,Wed Sep 11 21:54:09 2024
304,macaiba,-5.8583,-35.3539,74.23,94,40,6.91,BR,Wed Sep 11 21:54:09 2024
305,queenstown,-31.8976,26.8753,52.14,90,76,3.51,ZA,Wed Sep 11 21:54:09 2024
306,georgetown,5.4112,100.3354,76.95,88,40,5.99,MY,Wed Sep 11 21:42:51 2024
307,yuzhno-kurilsk,44.0306,145.8556,70.45,55,100,2.37,RU,Wed Sep 11 21:54:10 2024
308,mugia,43.1041,-9.2179,62.91,92,100,10.42,ES,Wed Sep 11 21:54:10 2024
309,san jose del guaviare,2.5729,-72.6459,77.85,83,100,2.57,CO,Wed Sep 11 21:54:10 2024
310,maceio,-9.6658,-35.7353,72.84,94,40,3.44,BR,Wed Sep 11 21:53:18 2024
311,brisas de zicatela,15.8369,-97.0419,81.23,81,20,2.01,MX,Wed Sep 11 21:54:10 2024
312,auki,-8.7676,160.7034,83.84,74,100,6.04,SB,Wed Sep 11 21:54:10 2024
313,carbonear,47.7332,-53.2148,59.34,84,6,10.74,CA,Wed Sep 11 21:54:10 2024
314,akrehamn,59.2667,5.1833,52.05,76,100,20.71,NO,Wed Sep 11 21:54:10 2024
315,covington,39.0837,-84.5086,73.22,56,0,3.44,US,Wed Sep 11 21:54:11 2024
316,howard springs,-12.497,131.047,89.51,53,8,11.3,AU,Wed Sep 11 21:54:11 2024
317,santiago del torno,-17.9833,-63.3833,83.7,27,1,6.35,BO,Wed Sep 11 21:50:08 2024
318,nabire,-3.3667,135.4833,87.21,61,99,4.07,ID,Wed Sep 11 21:54:11 2024
319,mil'kovo,55.6078,37.7956,66.34,62,100,7.56,RU,Wed Sep 11 21:54:11 2024
320,pekan,3.4836,103.3996,83.19,76,100,5.48,MY,Wed Sep 11 21:54:11 2024
321,anloga,5.7947,0.8973,76.44,90,74,13.67,GH,Wed Sep 11 21:54:11 2024
322,nacala,-14.5428,40.6728,76.96,68,100,8.86,MZ,Wed Sep 11 21:54:12 2024
323,oppdal,62.5943,9.6912,42.8,83,91,14.9,NO,Wed Sep 11 21:54:12 2024
324,pathein,16.7833,94.7333,81.18,88,100,9.31,MM,Wed Sep 11 21:54:12 2024
325,acarau,-2.8856,-40.12,77.38,83,12,18.34,BR,Wed Sep 11 21:54:12 2024
326,sovetskaya gavan',48.9723,140.2878,73.67,38,2,15.79,RU,Wed Sep 11 21:54:12 2024
327,madang,-5.2246,145.7966,88.27,59,100,5.64,PG,Wed Sep 11 21:54:12 2024
328,alice town,25.7167,-79.3,84.65,70,86,8.3,BS,Wed Sep 11 21:54:12 2024
329,abeche,13.8292,20.8324,78.35,72,100,4.09,TD,Wed Sep 11 21:54:12 2024
330,penzance,50.1186,-5.5371,52.48,67,100,16.67,GB,Wed Sep 11 21:54:12 2024
331,qaqortoq,60.7167,-46.0333,44.02,73,100,2.64,GL,Wed Sep 11 21:54:12 2024
332,cooma,-36.2333,149.1333,45.43,82,100,11.3,AU,Wed Sep 11 21:54:13 2024
333,mahenge,-8.6833,36.7167,59.49,73,60,0.92,TZ,Wed Sep 11 21:54:13 2024
334,lubao,14.9167,120.55,83.91,72,100,3.0,PH,Wed Sep 11 21:54:13 2024
335,san antonio de pale,-1.4014,5.6325,76.01,86,100,12.33,GQ,Wed Sep 11 21:54:13 2024
336,cockburn town,21.4612,-71.1419,83.8,75,16,16.53,TC,Wed Sep 11 21:54:13 2024
337,ivins,37.1686,-113.6794,89.96,12,0,1.99,US,Wed Sep 11 21:54:13 2024
338,chonchi,-42.6128,-73.8092,45.12,97,90,2.8,CL,Wed Sep 11 21:54:13 2024
339,smithers,54.7804,-127.1743,62.92,48,75,8.05,CA,Wed Sep 11 21:54:13 2024
340,melekeok village,7.4957,134.6367,81.16,83,100,18.41,PW,Wed Sep 11 21:54:13 2024
341,egilsstadir,65.2653,-14.3948,37.31,65,0,8.05,IS,Wed Sep 11 21:54:14 2024
342,shostka,51.863,33.4698,60.98,86,100,6.8,UA,Wed Sep 11 21:54:14 2024
343,chadron,42.8294,-102.9999,83.88,21,40,18.41,US,Wed Sep 11 21:54:14 2024
344,yinchuan,38.4681,106.2731,70.5,71,92,6.29,CN,Wed Sep 11 21:54:14 2024
345,yilan,24.757,121.753,85.87,68,100,5.26,TW,Wed Sep 11 21:54:14 2024
346,colonia,50.9333,6.95,47.95,87,0,5.75,DE,Wed Sep 11 21:54:14 2024
347,cedeira,43.6797,-8.0209,60.84,100,100,8.48,ES,Wed Sep 11 21:54:14 2024
348,pesqueira,-8.3578,-36.6964,62.96,91,88,11.56,BR,Wed Sep 11 21:54:14 2024
349,callao,-12.0667,-77.15,63.72,82,75,9.22,PE,Wed Sep 11 21:52:46 2024
350,taroudant,30.4703,-8.877,68.02,71,0,0.47,MA,Wed Sep 11 21:54:14 2024
351,skowhegan,44.7651,-69.7192,59.7,95,6,1.86,US,Wed Sep 11 21:54:15 2024
352,yokadouma,3.5167,15.05,69.71,98,100,1.16,CM,Wed Sep 11 21:54:15 2024
353,mattoon,39.4831,-88.3728,71.55,68,0,3.44,US,Wed Sep 11 21:52:01 2024
354,kotlas,61.2611,46.6556,58.28,92,81,4.0,RU,Wed Sep 11 21:54:15 2024
355,bamboo flat,11.7,92.7167,84.29,84,40,11.5,IN,Wed Sep 11 21:54:15 2024
356,muscat,23.6139,58.5922,80.98,71,0,6.73,OM,Wed Sep 11 21:50:42 2024
357,bomdila,27.25,92.4,59.09,71,66,1.83,IN,Wed Sep 11 21:54:15 2024
358,mwene-ditu,-7.0,23.45,70.5,74,98,2.15,CD,Wed Sep 11 21:54:15 2024
359,weno,7.4515,151.8468,85.95,84,100,12.66,FM,Wed Sep 11 21:54:15 2024
360,minas de marcona,-15.2119,-75.1103,51.8,82,7,11.32,PE,Wed Sep 11 21:54:15 2024
361,kez,57.8979,53.7152,53.28,93,100,6.08,RU,Wed Sep 11 21:54:16 2024
362,alice springs,-23.7,133.8833,74.75,25,7,20.71,AU,Wed Sep 11 21:54:16 2024
363,dwarka,22.2394,68.9678,81.37,74,100,13.89,IN,Wed Sep 11 21:54:16 2024
364,gizo,-8.103,156.8419,81.68,82,96,11.14,SB,Wed Sep 11 21:54:16 2024
365,sint michiel liber,12.15,-68.9833,85.82,84,20,13.8,CW,Wed Sep 11 21:54:16 2024
366,sitka,57.0531,-135.33,58.89,67,75,8.05,US,Wed Sep 11 21:54:16 2024
367,kayangel,8.0823,134.7173,81.55,90,100,34.18,PW,Wed Sep 11 21:54:16 2024
368,lumberton,34.6182,-79.0086,71.58,78,0,5.75,US,Wed Sep 11 21:50:22 2024
369,kolonia,50.9333,6.95,47.95,87,0,5.75,DE,Wed Sep 11 21:54:14 2024
370,sinabang,2.4803,96.3801,81.05,82,100,2.37,ID,Wed Sep 11 21:54:17 2024
371,nadi,-17.8,177.4167,86.0,62,40,16.11,FJ,Wed Sep 11 21:54:17 2024
372,nemuro,43.3236,145.575,67.12,76,100,1.68,JP,Wed Sep 11 21:54:17 2024
373,santa elena de uairen,4.6167,-61.1333,69.28,83,20,2.46,VE,Wed Sep 11 21:54:17 2024
374,essaouira,31.5125,-9.77,69.3,68,20,8.05,MA,Wed Sep 11 21:54:17 2024
375,santiago de cao,-7.9589,-79.2392,62.73,88,75,9.22,PE,Wed Sep 11 21:54:17 2024
376,albertina,-22.2008,-46.6158,67.64,30,0,7.63,BR,Wed Sep 11 21:54:17 2024
377,san mariano,7.5,126.0,78.21,89,100,2.82,PH,Wed Sep 11 21:54:17 2024
378,tabou,4.423,-7.3528,75.99,90,79,10.47,CI,Wed Sep 11 21:54:17 2024
379,lorengau,-2.0226,147.2712,79.88,89,100,8.81,PG,Wed Sep 11 21:54:17 2024
380,al ghayzah,16.2079,52.176,78.42,83,85,2.53,YE,Wed Sep 11 21:54:18 2024
381,palafrugell,41.9174,3.1631,67.35,87,100,1.99,ES,Wed Sep 11 21:54:18 2024
382,saint-laurent-du-maroni,5.5039,-54.0289,76.84,83,15,4.52,GF,Wed Sep 11 21:49:39 2024
383,fort mcmurray,56.7268,-111.381,65.79,45,100,6.91,CA,Wed Sep 11 21:53:39 2024
384,jiashan,30.8492,120.9258,86.52,71,100,12.15,CN,Wed Sep 11 21:54:18 2024
385,kili,5.6439,169.1211,84.96,67,2,11.72,MH,Wed Sep 11 21:54:18 2024
386,inhambane,-23.865,35.3833,70.5,76,46,9.6,MZ,Wed Sep 11 21:54:18 2024
387,burang,30.25,81.1667,44.55,91,100,4.7,CN,Wed Sep 11 21:54:18 2024
388,ardakan,32.31,54.0175,75.56,15,0,4.99,IR,Wed Sep 11 21:54:18 2024
389,dunedin,-45.8742,170.5036,44.8,97,100,5.99,NZ,Wed Sep 11 21:54:18 2024
390,horta,38.5333,-28.6333,69.03,83,11,4.0,PT,Wed Sep 11 21:54:19 2024
391,kegeyli shahar,42.7767,59.6078,64.81,43,20,8.81,UZ,Wed Sep 11 21:54:19 2024
392,wanning,18.8003,110.3967,83.3,69,78,3.65,CN,Wed Sep 11 21:54:19 2024
393,basciftlik,40.5469,37.1692,58.59,39,0,6.31,TR,Wed Sep 11 21:54:19 2024
394,matsue,35.4722,133.0506,87.75,74,75,4.61,JP,Wed Sep 11 21:54:19 2024
395,chingola,-12.529,27.8838,66.74,37,40,9.55,ZM,Wed Sep 11 21:54:19 2024
396,plymouth,41.8334,-70.8328,61.66,85,0,0.0,US,Wed Sep 11 21:54:19 2024
397,dovhe,48.3653,23.279,59.22,94,91,1.52,UA,Wed Sep 11 21:54:19 2024
398,neka,36.6508,53.299,74.71,94,75,6.91,IR,Wed Sep 11 21:54:19 2024
399,labytnangi,66.6572,66.4183,54.9,83,31,7.07,RU,Wed Sep 11 21:54:19 2024
400,ancud,-41.8697,-73.8203,45.93,83,100,7.76,CL,Wed Sep 11 21:54:19 2024
401,nassau,40.7507,-73.5829,66.74,82,0,0.0,US,Wed Sep 11 21:54:20 2024
402,balikpapan,-1.2675,116.8289,83.39,65,20,13.8,ID,Wed Sep 11 21:54:20 2024
403,kupang,-10.1667,123.5833,90.18,55,20,18.41,ID,Wed Sep 11 21:54:20 2024
404,cole harbour,44.6724,-63.4751,56.59,84,1,4.34,CA,Wed Sep 11 21:51:50 2024
405,sao paulo de olivenca,-3.3783,-68.8725,82.44,48,1,0.81,BR,Wed Sep 11 21:54:20 2024
406,bandarbeyla,9.4942,50.8122,76.86,83,83,21.43,SO,Wed Sep 11 21:54:20 2024
407,broken hill,-31.95,141.4333,58.19,32,0,21.94,AU,Wed Sep 11 21:54:20 2024
408,walvis bay,-22.9575,14.5053,52.74,83,0,7.72,NA,Wed Sep 11 21:54:20 2024
409,kilembe,0.2,30.0,61.88,66,70,4.92,UG,Wed Sep 11 21:54:20 2024
410,bay harbor,30.1471,-85.6146,76.95,96,75,9.22,US,Wed Sep 11 21:54:21 2024
411,happy valley-goose bay,53.3168,-60.3315,46.71,76,75,4.61,CA,Wed Sep 11 21:54:21 2024
412,altamira,-3.2033,-52.2064,81.91,49,12,3.74,BR,Wed Sep 11 21:54:21 2024
413,manihari,25.35,87.6333,85.86,72,99,5.23,IN,Wed Sep 11 21:54:21 2024
414,stjordalshalsen,63.4681,10.9262,53.6,58,0,21.85,NO,Wed Sep 11 21:54:21 2024
415,viedma,-40.8135,-62.9967,43.02,50,0,9.66,AR,Wed Sep 11 21:54:21 2024
416,kadnikov,59.5022,40.338,54.55,85,71,5.26,RU,Wed Sep 11 21:54:21 2024
417,les anglais,18.3054,-74.2197,78.53,84,69,3.49,HT,Wed Sep 11 21:54:21 2024
418,sheridan,44.8333,-106.9173,70.7,50,96,1.01,US,Wed Sep 11 21:54:21 2024
419,zykovo,55.9519,93.1461,43.07,74,91,2.82,RU,Wed Sep 11 21:54:21 2024
420,cuatro cienegas de carranza,26.9833,-102.0833,84.34,39,87,7.36,MX,Wed Sep 11 21:54:22 2024
421,san andres,12.5847,-81.7006,86.02,74,20,5.75,CO,Wed Sep 11 21:54:22 2024
422,afaahiti,-17.75,-149.2833,75.49,87,31,17.76,PF,Wed Sep 11 21:54:22 2024
423,reggane,26.7158,0.1714,90.95,18,14,13.24,DZ,Wed Sep 11 21:54:22 2024
424,janeng,-25.4167,25.55,60.13,71,7,16.62,BW,Wed Sep 11 21:54:22 2024
425,emerald,-23.5333,148.1667,79.34,51,0,5.79,AU,Wed Sep 11 21:50:10 2024
426,yemetsk,63.4721,41.7941,56.5,89,74,6.46,RU,Wed Sep 11 21:54:22 2024
427,langsa,4.4683,97.9683,74.46,95,100,1.86,ID,Wed Sep 11 21:54:22 2024
428,tezu,27.9167,96.1667,86.02,53,11,1.88,IN,Wed Sep 11 21:54:22 2024
429,mweka,-4.85,21.5667,69.94,95,100,4.63,CD,Wed Sep 11 21:54:22 2024
430,aljezur,37.3191,-8.8033,61.61,84,35,14.97,PT,Wed Sep 11 21:54:23 2024
431,undurkhaan,47.3194,110.6556,55.24,57,100,20.83,MN,Wed Sep 11 21:54:23 2024
432,rano,11.5491,8.5746,71.94,91,68,6.85,NG,Wed Sep 11 21:54:23 2024
433,terrace,54.5163,-128.6035,64.31,55,75,6.91,CA,Wed Sep 11 21:52:50 2024
434,yeppoon,-23.1333,150.7333,73.22,63,0,9.01,AU,Wed Sep 11 21:54:23 2024
435,dogubayazit,39.5469,44.0842,62.58,55,0,1.12,TR,Wed Sep 11 21:54:23 2024
436,shahritus,37.2637,68.1385,67.93,26,0,1.54,TJ,Wed Sep 11 21:54:23 2024
437,ingeniero jacobacci,-41.3427,-69.5448,39.69,54,9,9.06,AR,Wed Sep 11 21:54:23 2024
438,itamaraca,-7.7478,-34.8256,74.01,83,12,11.61,BR,Wed Sep 11 21:54:24 2024
439,kosong,38.3788,128.4676,70.83,97,100,2.98,KR,Wed Sep 11 21:54:24 2024
440,kzyltu,53.6364,72.3414,49.57,84,100,7.92,KZ,Wed Sep 11 21:54:24 2024
441,papao,-17.75,-149.55,83.88,84,7,16.13,PF,Wed Sep 11 21:54:24 2024
442,changli,39.7042,119.1506,74.05,50,2,4.16,CN,Wed Sep 11 21:54:24 2024
443,kidal,18.4411,1.4078,84.58,54,100,4.36,ML,Wed Sep 11 21:54:24 2024
444,harran,36.86,39.0314,74.73,67,0,5.55,TR,Wed Sep 11 21:54:24 2024
445,tagiura,32.8817,13.3506,77.9,66,0,8.41,LY,Wed Sep 11 21:54:24 2024
446,turtas,58.9417,69.1325,52.2,89,27,2.86,RU,Wed Sep 11 21:54:25 2024
447,kazerun,29.6195,51.6541,82.35,19,0,4.43,IR,Wed Sep 11 21:54:25 2024
448,bairnsdale,-37.8333,147.6167,51.3,82,100,1.41,AU,Wed Sep 11 21:54:25 2024
449,taraz,42.9,71.3667,48.61,61,0,8.95,KZ,Wed Sep 11 21:54:25 2024
450,kattivakkam,13.2167,80.3167,85.96,74,28,11.07,IN,Wed Sep 11 21:54:25 2024
451,aweil,8.7682,27.4002,72.12,95,82,3.51,SS,Wed Sep 11 21:54:25 2024
452,spittal an der drau,46.8,13.5,57.85,99,100,0.96,AT,Wed Sep 11 21:54:25 2024
453,zyryanskoye,56.8306,86.6258,42.03,74,100,4.16,RU,Wed Sep 11 21:54:25 2024
454,kapa'a,22.0752,-159.319,84.52,68,0,10.36,US,Wed Sep 11 21:54:25 2024
455,la rioja,42.25,-2.5,55.18,83,100,6.8,ES,Wed Sep 11 21:50:11 2024
456,phan rang-thap cham,11.5667,108.9833,83.61,72,100,0.63,VN,Wed Sep 11 21:54:26 2024
457,villa elisa,-25.3667,-57.6167,78.04,63,58,16.11,PY,Wed Sep 11 21:54:26 2024
458,cabeza del buey,38.7223,-5.2195,67.64,26,55,3.02,ES,Wed Sep 11 21:54:26 2024
459,juruti,-2.1522,-56.0922,87.44,40,84,3.89,BR,Wed Sep 11 21:54:26 2024
460,macia,-25.0269,33.0989,65.77,83,1,7.9,MZ,Wed Sep 11 21:54:26 2024
461,beledweyne,4.7358,45.2036,76.24,79,81,19.33,SO,Wed Sep 11 21:54:26 2024
462,baiti,13.745,-14.7482,75.51,97,99,7.76,SN,Wed Sep 11 21:54:26 2024
463,freeport,40.6576,-73.5832,67.05,83,0,3.44,US,Wed Sep 11 21:54:26 2024
464,kayes,14.0,-11.0,75.56,91,86,2.77,ML,Wed Sep 11 21:54:26 2024
465,port alfred,-33.5906,26.891,62.19,94,100,8.99,ZA,Wed Sep 11 21:54:26 2024
466,hovd,48.0056,91.6419,57.07,42,100,1.99,MN,Wed Sep 11 21:54:27 2024
467,nikolayevsk-on-amure,53.1406,140.73,54.28,55,80,17.81,RU,Wed Sep 11 21:54:27 2024
468,riverton,40.5219,-111.9391,84.69,17,100,18.41,US,Wed Sep 11 21:49:55 2024
469,trinity,28.1808,-82.6818,80.94,88,100,3.0,US,Wed Sep 11 21:54:27 2024
470,dryden,49.7833,-92.7503,62.89,94,20,5.75,CA,Wed Sep 11 21:54:27 2024
471,bay roberts,47.5999,-53.2648,58.14,94,5,1.01,CA,Wed Sep 11 21:54:27 2024
472,bodo,67.28,14.405,59.77,81,97,5.01,NO,Wed Sep 11 21:54:27 2024
473,malone,44.8487,-74.2949,53.55,87,61,4.79,US,Wed Sep 11 21:54:27 2024
474,alvaraes,-3.2208,-64.8042,81.45,45,42,1.79,BR,Wed Sep 11 21:54:27 2024
475,okha,53.5739,142.9478,49.39,68,85,27.94,RU,Wed Sep 11 21:54:28 2024
476,schoningen,52.138,10.9675,44.38,87,0,4.76,DE,Wed Sep 11 21:54:28 2024
477,alpine,32.835,-116.7664,67.5,71,0,6.91,US,Wed Sep 11 21:54:28 2024
478,phatthalung,7.5,100.0833,85.35,65,70,6.53,TH,Wed Sep 11 21:54:28 2024
479,buka,40.8108,69.1986,62.56,24,100,3.94,UZ,Wed Sep 11 21:54:28 2024
480,kushiro,42.975,144.3747,70.75,73,75,1.14,JP,Wed Sep 11 21:54:28 2024
481,livadiya,42.8692,132.6764,73.85,46,0,6.96,RU,Wed Sep 11 21:54:28 2024
482,dahlonega,34.5326,-83.9849,70.92,66,100,6.26,US,Wed Sep 11 21:54:28 2024
483,pemba,-12.974,40.5178,75.9,94,20,9.22,MZ,Wed Sep 11 21:54:29 2024
484,dombarovskiy,50.7587,59.5386,54.43,77,23,11.79,RU,Wed Sep 11 21:54:29 2024
485,colby,39.3958,-101.0524,78.85,31,0,19.57,US,Wed Sep 11 21:54:29 2024
486,port augusta,-32.5,137.7667,63.05,31,0,18.43,AU,Wed Sep 11 21:54:29 2024
487,peace river,56.2501,-117.286,66.51,48,75,4.61,CA,Wed Sep 11 21:54:29 2024
488,salekhard,66.53,66.6019,54.97,81,32,8.79,RU,Wed Sep 11 21:54:29 2024
489,oban,56.4127,-5.4706,47.25,76,100,9.24,GB,Wed Sep 11 21:54:29 2024
490,bara,10.3744,10.7288,74.55,91,91,5.73,NG,Wed Sep 11 21:54:29 2024
491,marsh harbour,26.5412,-77.0636,81.82,75,99,10.38,BS,Wed Sep 11 21:54:29 2024
492,new plymouth,-39.0667,174.0833,58.8,100,100,10.78,NZ,Wed Sep 11 21:54:30 2024
493,praya,14.9215,-23.5087,79.34,89,20,4.61,CV,Wed Sep 11 21:54:30 2024
494,xai-xai,-25.0519,33.6442,66.51,85,4,9.78,MZ,Wed Sep 11 21:54:30 2024
495,quellon,-43.1167,-73.6167,44.85,91,100,6.55,CL,Wed Sep 11 21:50:50 2024
496,letterkenny,54.95,-7.7333,42.15,87,7,4.59,IE,Wed Sep 11 21:54:30 2024
497,al hazm,16.1641,44.7769,82.36,17,92,2.55,YE,Wed Sep 11 21:54:30 2024
498,abepura,-2.6333,140.5833,88.61,62,20,4.61,ID,Wed Sep 11 21:54:30 2024
499,nar'yan-mar,67.6713,53.087,56.05,92,50,9.06,RU,Wed Sep 11 21:54:30 2024
500,gamba,-2.65,10.0,74.39,91,77,4.63,GA,Wed Sep 11 21:54:30 2024
501,al kharijah,25.4514,30.5464,87.39,26,0,6.13,EG,Wed Sep 11 21:54:31 2024
502,fort bragg,35.139,-79.006,71.82,79,0,4.61,US,Wed Sep 11 21:54:31 2024
503,christchurch,-43.5333,172.6333,66.4,39,98,18.41,NZ,Wed Sep 11 21:52:19 2024
504,jiuquan,39.7432,98.5174,58.6,77,100,14.41,CN,Wed Sep 11 21:54:31 2024
505,east ballina,-28.8667,153.5833,70.39,75,78,10.25,AU,Wed Sep 11 21:54:31 2024
506,portland,45.5234,-122.6762,68.02,77,37,5.01,US,Wed Sep 11 21:52:25 2024
507,calapan,13.4117,121.1803,86.07,70,100,8.25,PH,Wed Sep 11 21:54:31 2024
508,olenegorsk,68.15,33.3,53.96,86,35,4.27,RU,Wed Sep 11 21:54:31 2024
509,edd,13.9297,41.6925,88.07,67,87,7.96,ER,Wed Sep 11 21:54:31 2024
510,heist,53.65,9.65,45.36,96,1,4.61,DE,Wed Sep 11 21:54:32 2024
511,tamarin,-20.3256,57.3706,65.52,95,5,6.38,MU,Wed Sep 11 21:54:32 2024
512,praia,14.9215,-23.5087,79.34,89,20,4.61,CV,Wed Sep 11 21:54:32 2024
513,rio grande,-32.035,-52.0986,58.6,93,100,19.24,BR,Wed Sep 11 21:50:03 2024
514,jayapura,-2.5333,140.7,88.99,65,100,3.69,ID,Wed Sep 11 21:54:32 2024
515,tangalle,6.024,80.7911,79.25,87,96,9.66,LK,Wed Sep 11 21:54:32 2024
516,conde,-7.2597,-34.9075,71.06,100,75,9.22,BR,Wed Sep 11 21:54:32 2024
517,sibolga,1.7427,98.7792,75.88,93,100,2.95,ID,Wed Sep 11 21:54:32 2024
518,isla vista,34.4133,-119.861,69.82,74,0,6.91,US,Wed Sep 11 21:54:32 2024
519,boguchany,58.3814,97.4531,45.39,72,100,4.68,RU,Wed Sep 11 21:54:32 2024
520,port blair,11.6667,92.75,84.24,84,40,11.5,IN,Wed Sep 11 21:54:33 2024
521,sambava,-14.2667,50.1667,68.52,91,48,9.01,MG,Wed Sep 11 21:54:33 2024
522,port saint john's,-31.6229,29.5448,66.79,94,100,19.06,ZA,Wed Sep 11 21:54:33 2024
523,tazacorte,28.629,-17.9293,72.57,77,75,18.41,ES,Wed Sep 11 21:54:33 2024
524,choibalsan,48.0667,114.5,55.22,45,100,16.15,MN,Wed Sep 11 21:54:33 2024
525,wau,7.7029,27.9953,71.2,83,75,2.44,SS,Wed Sep 11 21:54:33 2024
526,lamar,33.6668,-95.5836,67.91,98,100,11.5,US,Wed Sep 11 21:51:01 2024
527,aripuana,-9.1667,-60.6333,83.35,35,99,0.67,BR,Wed Sep 11 21:54:33 2024
528,kashima-shi,35.9654,140.6447,94.89,61,24,5.79,JP,Wed Sep 11 21:54:34 2024
529,keren,15.7778,38.4581,70.48,84,53,1.86,ER,Wed Sep 11 21:54:34 2024
530,salalah,17.0151,54.0924,80.69,89,40,5.75,OM,Wed Sep 11 21:54:34 2024
531,beloyarskiy,63.7119,66.6722,51.53,84,39,6.13,RU,Wed Sep 11 21:54:34 2024
532,laplace,30.0666,-90.4801,76.98,98,100,28.34,US,Wed Sep 11 21:54:34 2024
533,yamethin,20.4333,96.15,72.99,97,100,8.63,MM,Wed Sep 11 21:54:34 2024
534,gutao,37.2025,112.1781,73.9,49,1,9.98,CN,Wed Sep 11 21:54:34 2024
535,urumqi,43.801,87.6005,61.75,52,0,6.71,CN,Wed Sep 11 21:54:34 2024
536,mangrol,21.1167,70.1167,80.73,80,92,13.91,IN,Wed Sep 11 21:54:35 2024
537,fengxiang,47.5833,130.8333,68.67,50,99,9.86,CN,Wed Sep 11 21:54:35 2024
538,piti village,13.4626,144.6933,84.31,88,75,16.11,GU,Wed Sep 11 21:54:35 2024
539,moengo,5.6167,-54.4,77.34,82,11,3.22,SR,Wed Sep 11 21:54:35 2024
540,guiuan,11.0333,125.7247,83.59,77,99,16.24,PH,Wed Sep 11 21:54:35 2024
541,crane,31.3974,-102.3501,81.19,28,0,9.33,US,Wed Sep 11 21:54:35 2024
542,san ignacio de velasco,-16.3667,-60.95,80.01,29,0,4.18,BO,Wed Sep 11 21:54:35 2024
543,ibusuki,31.2333,130.65,86.0,70,2,6.93,JP,Wed Sep 11 21:54:35 2024
544,lloydminster,53.2835,-110.0016,62.82,42,100,13.8,CA,Wed Sep 11 21:54:35 2024
545,tanjung selor,2.8372,117.3642,85.8,58,100,5.26,ID,Wed Sep 11 21:54:35 2024
546,itaituba,-4.2761,-55.9836,83.48,39,17,2.48,BR,Wed Sep 11 21:54:36 2024
547,bonoua,5.2741,-3.595,74.44,92,67,6.89,CI,Wed Sep 11 21:54:36 2024
548,neubrandenburg,53.5667,13.2667,45.66,92,100,7.34,DE,Wed Sep 11 21:54:36 2024
549,greci,45.1833,28.2333,65.73,91,100,5.97,RO,Wed Sep 11 21:54:36 2024
550,tucurui,-3.7661,-49.6725,79.12,52,0,2.37,BR,Wed Sep 11 21:50:21 2024
551,arica,-18.475,-70.3042,61.03,77,100,5.75,CL,Wed Sep 11 21:52:11 2024
552,rizhao,35.4275,119.4553,76.15,87,98,12.5,CN,Wed Sep 11 21:54:36 2024
553,stettler,52.3168,-112.7186,62.17,47,100,12.19,CA,Wed Sep 11 21:54:36 2024
554,sungjibaegam,41.2428,128.7989,65.7,72,64,3.31,KP,Wed Sep 11 21:54:36 2024
555,susuman,62.7833,148.1667,39.22,98,100,4.29,RU,Wed Sep 11 21:54:36 2024
556,pelhrimov,49.4313,15.2234,50.58,92,100,13.27,CZ,Wed Sep 11 21:54:37 2024
557,novohrad-volynskyi,50.5941,27.6165,63.81,60,100,2.48,UA,Wed Sep 11 21:54:37 2024
558,leava,-14.3,-178.1667,79.83,85,7,19.6,WF,Wed Sep 11 21:54:37 2024
559,pangkalanbuun,-2.6833,111.6167,86.5,55,4,6.29,ID,Wed Sep 11 21:54:37 2024
560,fort-shevchenko,44.5086,50.263,71.55,43,4,16.62,KZ,Wed Sep 11 21:54:37 2024
561,orchard homes,46.8633,-114.0484,55.92,89,100,17.27,US,Wed Sep 11 21:54:37 2024
562,biltine,14.5333,20.9167,80.56,68,98,4.23,TD,Wed Sep 11 21:54:37 2024
563,massakory,12.996,15.7293,83.07,70,8,3.18,TD,Wed Sep 11 21:51:23 2024
564,aioun,16.6614,-9.6149,88.83,52,100,8.21,MR,Wed Sep 11 21:54:37 2024
565,suklayin,15.7574,121.5503,88.84,63,100,1.68,PH,Wed Sep 11 21:54:37 2024
566,malvan,16.0667,73.4667,80.11,82,76,9.51,IN,Wed Sep 11 21:54:38 2024
567,bonthe,7.5264,-12.505,76.82,91,100,6.89,SL,Wed Sep 11 21:54:38 2024
568,hell-ville,-13.4,48.2667,76.24,79,96,6.85,MG,Wed Sep 11 21:54:38 2024
569,tamandare,-8.7597,-35.1047,75.31,72,49,11.12,BR,Wed Sep 11 21:54:38 2024
570,rikaze,29.25,88.8833,57.87,44,38,1.86,CN,Wed Sep 11 21:54:38 2024
571,ghat,24.9647,10.1728,92.23,31,54,3.22,LY,Wed Sep 11 21:54:38 2024
572,qarqaraly,49.4058,75.4742,43.68,79,8,13.06,KZ,Wed Sep 11 21:54:38 2024
573,verkhnevilyuysk,63.4453,120.3167,48.15,67,99,9.8,RU,Wed Sep 11 21:54:38 2024
574,amos,48.5669,-78.1162,59.95,94,87,6.31,CA,Wed Sep 11 21:54:38 2024
